{
    "places": [
        {
            "name": "Rummels Bucht",
            "coordinates": [
                52.500772,
                13.472764
            ]
        },
        {
            "name": "SEZ Berlin",
            "coordinates": [
                52.527025,
                13.446139
            ]
        },
        {
            "name": "Huxley's Neue Welt",
            "coordinates": [
                52.486319,
                13.421437
            ]
        },
        {
            "name": "Mensch Meier",
            "coordinates": [
                52.535069,
                13.452312
            ]
        },
        {
            "name": "Zur Klappe",
            "coordinates": [
                52.493039,
                13.387248
            ]
        },
        {
            "name": "OHM",
            "coordinates": [
                52.510507,
                13.42022
            ]
        },
        {
            "name": "M-BIA",
            "coordinates": [
                52.522437,
                13.409063
            ]
        },
        {
            "name": "Monster Ronson's Ichiban Karaoke",
            "coordinates": [
                52.505188,
                13.448437
            ]
        },
        {
            "name": "Marooush Restaurant - Lounge - Bar - Club",
            "coordinates": [
                52.500938,
                13.321438
            ]
        },
        {
            "name": "Kater Blau",
            "coordinates": [
                52.512187,
                13.425563
            ]
        }
    ]
}